{


"employees": [

    {
        "id":1,
        "name": "Ajay",
        "location":"Pune",
        "phone":"1111222233",
        "countryCode": "IN"
    },
    
    {
        "id":2,
        "name": "Hemant",
        "location":"Pune",
        "phone":"2222222233",
        "countryCode": "IN"
    },
    
    {
        "id":3,
        "name": "Priyakant",
        "location":"Pune",
        "phone":"4444222233",
        "countryCode": "IN"
    },
    
    {
        "id":4,
        "name": "Abhishek",
        "location":"Pune",
        "phone":"3333222233",
        "countryCode": "IN"
    },
    
    {
        "id":5,
        "name": "Bhasker",
        "location":"Pune",
        "phone":"5555222233",
        "countryCode": "IN"
    },
    
    {
        "id":6,
        "name": "Vijay",
        "location":"Pune",
        "phone":"8888222233",
        "countryCode": "IN"
    },
    
    {
        "id":7,
        "name": "Varun",
        "location":"Pune",
        "phone":"7777222233",
        "countryCode": "IN"
    },
    
    {
        "id":8,
        "name": "Sachin",
        "location":"Pune",
        "phone":"3939222233",
        "countryCode": "IN"
    }
]
}